Adresse,Type de lieu,Horaire,Position,Mode ped,COORD_N_Y,COORD_E_X,LAT,LON,Field10,Field11
Chemin des Rayes 8 - 1245 Collonge-Bellerive,Parking des Rayes,24/24,Au niveau des caisses du parking,OUI,1121467.71,2504354.93,46.237831,6.19866,,
Chemin du Bois-Des-Arts 52 (1226 Thonex),Mairie de Thônex (Réception),lundi - vendredi 08h00-17h00,Entrée réception Mairie dans boitier gris,NON,1116007.23,2504152.52,46.188688,6.197158,,
Chemin du Bouchat 15 (1252 Meinier),Centre sportif de Rouelbeau,24/24,"Contre le mur du bâtiment vestiaires, l'angle avec le côté restaurant",OUI,1122146.57,2505959.67,46.24457,6.21894,,
Chemin du Chateau-Bloch 1 (1219 Le Lignon),Centre de quartier des Libellules,24/24,Sur le mur de la chaufferie,NON,1118022.66,2497155.9,46.205866,6.106107,,
Chemin du Faubourg-de-Cruseilles 16 (1227 Carouge GE),Centre de formation Académie Suisse de sécurité,Lundi - vendredi 08h00-18h00,Dans le couloir à droite après l'entrée dans le centre,NON,1115163.66,2499434.59,46.18042187,6.136179017,,
Chemin du Grand-Champ 11 (1219 Aire),Ecole d'Aïre,lundi-vendredi 8:15-17:30,Hall d'entrée - salle de gym,NON,1117439.07,2496698.36,46.200446,6.100302,,
Chemin du Pont-de-Ville 15 (1224 Chene-Bougeries),Service des Routes,Lun-Ven: 7h-12h / 13h-16h,en face du réfectoir,OUI,1116980.82,2503736.99,46.197389,6.19161,,
Chemin du Pré-d'Orsat 10 - 1245 Collonge-Bellerive,Quadrilatère - Pharmacie,24/24,Devant la pharmacie AMAVITA côté place publique,OUI,1123202.85,2504913.09,46.253517,6.205541,,
Chemin du Ruisseau 39 (1216 Cointrin),Ecole de Cointrin,24/24,A l'entrée principale de la salle de gymnastique,OUI,1120156.64,2497117.0,46.225275,6.105307,,
Chemin Gerard-De-TERNIER 2 (1213 Petit-Lancy),h2o facilities sa,Lundi-jeudi: 07h00-17h00 vendredi: 07h-15h,"Dans la halle à droite, en direction des bureaux",-,1116789.77,2497270.49,46.194509,6.107958,,
Chemin Jean-Baptiste Vandelle 1 - 1290 Versoix,WC Gare CFF - Versoix,24/24,"Contre les WC attenant à la gare, au niveau du passage sous-voie",OUI,1126169.05,2501901.68,46.279423,6.166034,,
Chemin Nicolas-BOGUERET 12BIS (1219 Aire),Maison de quartier Aire Le Lignon,lun 8:30-11:30 / mar 14:00-20:00 / mer 8:00-18:00 / jeu 8:30-18:00 / ven 11:30-18:00,Hall d'entrée,NON,1117462.94,2496476.83,46.200662,6.097413,,
Chloé Mégevand Lador - Ch. De la Planta 35 - 1223 Cologny,Immeuble,Lu - Ve 08:30 - 18:00,A l'entrée tout à droite derrière bureau,OUI,1118919.05,2503525.21,46.21478856,6.188432156,,
Cite VIEUSSEUX 1 (1203 Geneve),Bureaux de la SCHG (Société Coopérative d'Habitation Genève),Lundi-vendredi 8h00-17h15,Réception de la SCHG,OUI,1118912.9,2498286.89,46.213988,6.120568,,
CMCH - 91 rue de lyon - 1203 Genève,Immeuble,Lu - Ve 08:00 - 17:30,Dans la salle de soin / Ascenceur,NON,1118321.79,2498533.34,46.20868149,6.123884367,,
Dr. Michel Chalier - Rue du Stand 40 - 1204 Genève,Immeuble pas de code à la porte,Lu - Ve 08:00 - 18:00,A l'entrée au fond à gauche,-,1117708.04,2499629.34,46.20332576,6.138215246,,
Esplanade de Pont-Rouge 2 - 1227 Carouge,Ecole Club - Réception,Lu - Ve 06:30 - 19:00 / Sa 08:00 - 13:00,AED à la réception à l'entrée du bâtiment à droite,OUI,1115945.14,2498749.21,46.18733765,6.127196455,,
Place de Cornavin 7 - 1201 Genève,MIGROS Cornavin Gare,Lu - Di 06:00 - 22:00,Au niveau des caisses proche de la sortie,OUI,1118518.5,2500041.1,46.21067669,6.143375562,,
"18 ch. De la Bergerie, 1236 Cartigny",Salle Communale,24/24,"Sous le couvert de la salle communale, côté Mairie",OUI,1114578.45,2490607.15,46.173769,6.02206,,
Avenue Cardinal-MERMILLOD 1 (1227 Carouge GE),Clinique de Carouge,7h00 - 23h00,Service des urgences,OUI,1115853.74,2499928.9,46.186745,6.1425,,
Avenue de Bel-Air 12 - 1225 Chêne-Bourg,MIGROS Chêne-Bourg,Lu - Me 08:00 - 19:00 / Je 08:00 - 20:00  / Ve 08:00 - 19:30 / Sa 08:00 - 18:00,Entrée directement à droite / Au niveau des bacs de fleurs,OUI,1116874.5,2503928.1,46.19645664,6.194073201,,
Avenue de Cavoitanne 99 (1287 Laconnex),Centre sportif,24/24,À côté de l'entrée de la buvette du stade,-,1113044.8,2491893.52,46.160207,6.03912,,
Avenue de Chatelaine 81 (1219 Chatelaine),Bibliothèque de Châtelaine,lun 15:00-19:00 / mar 14:00-18:00 / mer 9:00-13:00 14:00-18:00 / jeu 13:00-18:00,Bureau,NON,1118591.75,2497659.68,46.210985,6.112521,,
Avenue de Crozet 39 (1219 Chatelaine),Centre de quartier de Balexert,Mar 16:00-21:00 / Mer 9:00-11:30 14:00-18:00 / Jeu 16:00-18:00 / Ven 16:00-18:00,Grande salle,NON,1119186.42,2497541.78,46.216321,6.110876,,
Avenue de Feuillasse 24 - 1217 Meyrin,MIGROS Meyrin,Lu - Me 08:30 - 19:00 / Me-Je 08:30 - 19:30  / Sa 08:00 - 18:00,Dans le magasin au niveau des caisses Self-checkout (florissimo),OUI,1120958.21,2495366.63,46.23190866,6.082268173,,
Avenue de Feuillasse 25 (1217 Meyrin),Ecole De Livron,"lu-ve 06h30 à 18h00,  hors vacances scolaires",A l'intérieur de la salle de gymnastique,OUI,1120879.21,2495366.43,46.231159,6.082316,,
Avenue de Sainte-Clotilde 9 (1205 Geneve),Association Union Chrétiennes de Genève,lundi-vendredi 07h00-21h00 / samedi 07h00-12h00,"A droite, 3 mètres après la 2ème porte d'entrée",OUI,1117405.77,2499341.25,46.20056667,6.134528823,,
Avenue de Secheron 6 (1202 Geneve),Natural Le Coultre SA,lundi - vendredi 07h00-18h00,Dans le couloir de la caféteria,NON,1119610.58,2500484.93,46.220587,6.148874,,
Avenue de Vaudagne 39 (1217 Meyrin),Ecole de Bellavista II,24/24,"Dans le préau de l'école,  vers l'entrée de la loge du concierge",OUI,1121297.19,2495111.04,46.235157,6.078315,,
Avenue de Vaudagne 6 (1217 Meyrin),Ecole de Meyrin-Village,24/24,A côté de l'entrée de la salle de gymnastique,OUI,1120722.29,2494611.75,46.229602,6.072945,,
Avenue des Amazones 25 (1224 Chene-Bougeries),Ecole de la Gradelle,"Lu, ma, je, ve 8:30 - 16:30 / me 8:30 - 11:30",-,-,1117494.58,2503202.49,46.201781,6.184399,,
Avenue des Grandes-Communes 27 - 1213 Onex,Pharmacie Munier,24/24,Sur la façade de la pharmacie à droite,OUI,1116476.54,2496921.88,46.19183958,6.103415214,,
Avenue des Grandes-Communes 6 (1213 Petit-Lancy),INDUNI - Bureaux des ateliers,lundi - vendredi 07h30-18h00,Palier escalier,NON,1116767.03,2497361.08,46.194887,6.108711,,
Avenue du Bois-de-la-Chapelle 90 - 1213 Onex,"Cuisine, Cantine","Lu, Ma, Je, Ve 11:30-13:30, durant les périodes scolaires seulement","Intérieur du bâtiment, sous la salle de gym",-,1115969.24,2496649.95,46.18662039,6.09801992,,
Avenue du Mail 14 (1205 Geneve),"Résidence universitaire, Paroisse et Centre de Conférence",Lundi - Vendredi 08:00 - 18:30,Dans l'entrée du bâtiment B,OUI,1117210.0,2499670.67,46.198758,6.139019,,
Avenue du Petit-Lancy 10 (1213 Petit-Lancy),Résidence du Petit-Lancy / Foyer-Handicap,24/24,Sur la façade de la résidence à l'extérieur,-,1116380.94,2498026.35,46.19117,6.117735,,
Avenue Edmond-VAUCHER 5 (1219 Chatelaine),Ferme Golay,lundi - vendredi 9h - 17h,Entrée rez,NON,1118656.12,2497835.42,46.211564,6.114781,,
Avenue Henri-DUNANT 13 (1205 Geneve),Sport Quest S.A. - Salle de Sport,lundi-vendredi 7:00-21:00 / samedi 10:00-17:00,"15m tout droit après l'entrée, contre le mur à gauche",OUI,1116905.88,2499913.67,46.196112,6.142073,,
Avenue Jacob-Daniel MAILLARD 6 (1217 Meyrin),Centre de Voirie et Horticole,lu-ve 7h30 à 16h45,A côté de la réception,OUI,1120733.72,2494035.97,46.229684,6.065135,,
Avenue Louis-Casaï 27 - 1211 Genève,MIGROS Balexert,Lu - Me 08:30 - 19:00 / Je 08:30 - 21:00 / Ve 08:30 - 19:30 / Sa 08:00 - 18:00,Au service client du magasin MIGROS MMM,OUI,1119571.57,2497770.53,46.21980683,6.113728234,,
Avenue Vibert 29 - 1227 Carouge,MIGROS Vibert,Lu - Me 08:00 - 19:00 / Je 08:00 - 20:00 / Ve 08:00 - 19:30 / Sa 08:00 - 18:00,En entrant à droite entre le fleuriste et Nicolas - en face des caisses,OUI,1115419.73,2499312.73,46.18269655,6.134607361,,
Avenue Vibert 32 - 1227 Carouge,M-Parc La Praille,Lu - 08:00 - 19:00 / Jeu - 08:00 - 20:00 / Sa - 08:00 - 18:00,Au service client DO IT GARDEN MIGROS,OUI,1115610.5,2499296.34,46.18440995,6.134353997,,
Boulevard des Promenades 18 (1227 Carouge GE),"Bâtiment des Aînés (cantine scolaire, EVE)","Lu, Me, Ve 08:30-11:30 14:00-16:30 / Ma, Je 08:30-11:30",SAS à côté du téléphone,OUI,1115404.49,2499524.82,46.182699,6.137275,,
Boulevard des Promenades 2BIS (1227 Carouge GE),Bibliothèque,lu 10h00-12h00 / ma 10h00-12h00 15h00-19h00 / me 10h00-19h00 / je 10h00-12h00 15h00-19h00 / ve 10h00,SAS d'entrée à gauche,OUI,1115702.82,2499526.97,46.185266,6.137314,,
Buxtorf Friedli Konstantine - Rte de Saint Julien 118,Immeuble rez,Lu - Ve 08:00 - 17:00,A la récéption direcement,OUI,1113985.29,2498137.98,46.16961783,6.119708313,,
Cabinet médical de Cayla - 4 Av. des Eidguenots - 1203 Genève,Immeuble,Lu - Ve 08:00 - 12:00 / 13:30 - 17:00,Salle de soin. Couloir premier à gauche,OUI,1118016.22,2498095.18,46.20586681,6.11827467,,
Cabinet médical de Varembé - 19 ch. Camille Vidart - 1202 Genève,Locaux,Lu - Ve 08:00 - 17:00,"Dans la salle de soin (couloir du milieu), porte gauche",-,1119506.49,2499506.8,46.21948336,6.136240545,,
Carougénéraliste - 1 rue du Léopard - 1227 Genève,Building / Appartement,Lu - Ma  08:00 - 12:30 13:30 - 17:00 / Je - Ve  08:00 - 12:30 13:30 -17:00,Entrée coulour qui se direge au fond  de salle de traitement / chariot rayon inférieur,NON,1115999.21,2499212.28,46.18789354,6.133181587,,
Carrefour de Villereuse 2A (1207 Geneve),Parking de Villereuse,lun-ven 8h00-18h00,Caisses automatiques,-,1117342.76,2501228.84,46.20034564,6.158935515,,
Centre de cardiologie des Nations - 8 rue Maurice Baillard - 1202 Genève,immeuble,Lu - Ve 08:00 - 18:00,"Entrée à la salle de soin Dr Testuz, itiroir droit, tout en haut",NON,1119585.4,2499182.6,46.22014454,6.13202259,,
Centre médical de Cressy - 99 rte. De Loex,batiment,Lu - Ve 08:00 - 18:00,Entrée tout au fond à droite - salle de soin,OUI,1115765.73,2495705.02,46.18525873,6.087814353,,
Centre Médical du Lignon - 2 place du Lignon - 1219 Genève,Centre commerciale Lignon - Rez - entrée droite coté jura,Lu - Ve 08:00 - 19:00 / Sa 09:00 - 13:00,"Dans la salle de soin numéro 2, dans le chariot d'urgence",OUI,1117875.52,2496488.96,46.2043559,6.097498252,,
Chemin Armand-Dufaux 13 - 1245 Collonge-Bellerive,Plage de la Savonnière,24/24,Sur le bâtiment des toilettes de la plage,OUI,1124344.55,2504511.59,46.263729,6.200101,,
Chemin Charles-Borgeaud 27 - 1213 Onex,Mairie,"Lu 08:30-18:00 / Ma 07:30-11:30 13:30-17:00 / Me,Je 08:30-11:30 - 13:30-17:00 / Ven 08:30-11:30 13:30-16:30","Après le hall d'entrée, dans le couloir à gauche",NON,1115333.14,2496774.66,46.18154509,6.10175413,,
Chemin d'Archamps 17 (1257 La Croix-de-Rozon),Bâtiment de la Bossenaz,24/24,Devant l'entrée du bâtiment,OUI,1110968.37,2499386.19,46.142667,6.136464,,
Chemin de Champlong 50 - 1284 Chancy,Epicerie Proxi,24/24,A l'extérieur de l'épicerie Proxi,OUI,1111999.99,2486805.95,46.1499506,5.973491016,,
Chemin de la Berne 5 (1217 Meyrin),Centre sportif de Maisonnex,Lu - Dim 7:00 - 22:00,A côté de la réception,OUI,1121387.85,2493074.3,46.235412,6.05246,,
Chemin de la Bise 19 (1222 Vesenaz),Camping TCS,24/24,À côte la porte de la recéption,OUI,1122274.74,2503956.72,46.245033,6.193332,,
Chemin de la Colombe 7 - 1231 Conches,Ecole primaire de Conches,24/24,Se trouve contre le bâtiment dans le préau près des tables de ping-pong,OUI,1116083.26,2502736.91,46.1891686,6.178809273,,
Chemin de la Gradelle 10 - 1224 Chêne-Bougeries,MIGROS Gradelle,Lu-Me 07:30 -19:00 / Je 07:30 - 20:00 / Ve 07:30 - 19:30 / Sa 08:00 - 18:00,Entrée à droite en face des ascenseurs pour descendre parking,OUI,1117875.39,2503013.99,46.20532783,6.182025325,,
Chemin de la Gradelle 41 - 1224 Chêne-Bougeries,Centre de loisirs - Passage 41,24/24,"AED à l'entrée du centre de loisirs, à l'extérieur du bâtiment",OUI,1117720.93,2503436.6,46.20399939,6.187531993,,
Chemin de la Maille 70 (1217 Meyrin),Terrain Jakob,24/24,Sur la façade d'entrée de la maison,NON,1122389.09,2493880.38,46.244571,6.062686,,
Chemin de la Mairie 21 (1258 Perly),Stade de football - Zone sportive,24/24,Extérieur de la buvette - côté Jura,OUI,1112343.04,2495937.29,46.154606,6.091627,,
Chemin de la Montagne 3 - 1224 Chêne-Bougeries,Ecole primaire du chemin de la Montagne,24/24,A l'entrée principale de l'école. Il faut entrer dans le préau pour accéder à l'AED.,OUI,1117013.09,2503588.2,46.19765452,6.189642054,,
Chemin de la Montagne 73 - 1224 Chêne-Bougeries,Ecole primaire du Belvédère,24/24,AED entrée école côté piscine du Belvédère,OUI,1117838.13,2504292.62,46.205176,6.198597,,
Chemin de la Pralay 4 (1294 Genthod),Centre communal polyvalent,lun-ven 08h00 - 17h00,"Entrée principale du bâtiment, à droite de la porte",OUI,1124556.53,2500952.22,46.265124,6.153917,,
Chemin de la Ruette 10 - 1284 Chancy,Préau Ecole primaire,24/24,Sous le préau couvert entre les deux bâtiments de l'école. A l'entrée du bâtiment en bois foncé.,OUI,1111963.41,2486576.61,46.149583,5.970532,,
Chemin de l'Ancien-Péage 1 - 1290 Versoix,MIGROS Porte de Versoix,Lu - Me 08:00 - 19:00 / Je 08:00 - 20:00 / Ve 08:00 - 19:30 / Sa 08:00 - 19:00,Entre les deux ascenceurs vers entrée magasin Migros - entrée côté Jura,OUI,1125651.43,2502015.14,46.27512403,6.167451089,,
Chemin de l'Etang 4 (1219 Chatelaine),Service de la cohésion sociale,"Lu, Me, Je, Ve 9:00-12:00 13:00 - 16:00",Hall d'entrée,NON,1118760.57,2497451.97,46.212448,6.109753,,
Chemin de Mancy 61 - 1245 Collonge-Bellerive,Epicentre,24/24,Sur la façade côté buvette entre les 2 bâtiments,OUI,1122723.84,2504735.6,46.24918337,6.203337537,,
Chemin de Mussel 7 (1288 Aire-la-Ville),Salle polyvalente,24/24,A droite de la porte d'entrée principale,OUI,1116496.79,2492401.59,46.191356,6.044872,,
Chemin de Pont-céard,Pont-Céard - cabine Swisscom,24/24,Sur la voie publique à côté de l'ancienne cabine Swisscom,OUI,1127055.85,2501693.93,46.287709,6.162988,,
Chemin de Poussy 33 (1214 Vernier),Centre de quartier de Poussy,lundi-vendredi 11:00-14:00,Hall d'entrée,NON,1119037.17,2495994.68,46.21473,6.090837,,
Chemin de Sionnet 48 (1254 Jussy),Voie publique,24/24,Sur en mur existant à l'hauteur du numero 48 du Chemin de Sionnet,NON,1120973.59,2508117.78,46.233446,6.246997,,
Chemin de Sous-le-Clos 32 (1232 Confignon),Salle communale de Confignon,24/24,Entrée salle communale sur la droite,-,1114540.45,2495326.58,46.174236,6.082761,,
Chemin des Aiglons (1293 Bellevue),Parking sous-terrain Gitana,24/24,"Sur le bâtiment de l'accès piéton au parking, côté Jura du bâtiment",-,1123372.09,2500888.26,46.2544573,6.1533194,,
Chemin des Bougeries 15 (1231 Conches),Ecole supérieure de soins ambulanciers,Lundi-Vendredi 7:00-18:00 (hors vacances scolaires),"Dans le couloir à l'entrée du batiment, dans une armoire vitrée à droite",NON,1116134.7,2502657.64,46.189269,6.178069,,
Chemin des Briffods 6 (1244 Choulex),Salle communale,Lundi-vendredi de 08h00 à 18h00,Derrière le bar,OUI,1120117.27,2506235.91,46.225929,6.223337,,
Chemin des Cordonnieres 7 (1243 Presinge),Salle des fêtes,24/24,A l'entrée de la salle des fetes,NON,1119454.96,2508651.33,46.2202595,6.2547613,,
Chemin des Fosses 8 (1219 Aire),Stade d'Aïre,"Lu, Ma, Je, Ve 17:00-00:00 / Me 15:00-00:00 / Sa, Di 08:00-00:00",Couloir vestiaire,NON,1117112.66,2496256.21,46.197477,6.09465,,
Chemin des Graviers 35 - 1290 Versoix,Port Choiseul - Plage,24/24,"A l'entrée de la plage de Versoix, portail d'entrée",OUI,1127183.19,2502279.95,46.28893996,6.170564341,,
Chemin des Lezards 17 (1219 Aire),Tennis Aïre,7j/7j  Lun-Dim 9:00-22:00,Restaurant,NON,1116977.24,2496317.76,46.196236,6.095458,,
Chemin des Limites 1A (1293 Bellevue),Espace santé et fitness,Lun-Ven 7h-21h / Sam-Dim 9h-14h,"A droite en entrant dans le centre, dans la cage d'escalier pour monter",-,1124193.37,2500087.35,46.26175677,6.142803477,,
Chemin des Ouchettes 18 (1217 Meyrin),Boulodrome,7j/7j de 10h à 22h,A côté de l'entrée principale,OUI,1121223.49,2494492.97,46.234158,6.070885,,
Place de Sardaigne (1227 Carouge GE),Place de Sardaigne,24/24,"En face de l'église, à côté de la caisse du parking (entrée piéton)",OUI,1115572.5,2499676.64,46.184125,6.139276,,
Place de Sardaigne 2 (1227 Carouge GE),Musée de Carouge,ma 14h-18h / me-ve 8h30-18h / sa-di 14h-18h,À l'entrée / réception,OUI,1115587.57,2499656.84,46.184282,6.139099,,
Place des Cinq-Continents 1 (1217 Meyrin),Théâtre Forum Meyrin,24/24,"A l'entrée de la porte Mairie, face à l'entrée de l'Undertown",OUI,1120993.11,2495283.96,46.232378,6.081354,,
Place des Trois-Martyrs - 1224 Chêne-Bougeries,Place publique - fontaine,24/24,A côté de la pharmacie,OUI,1116826.52,2503675.63,46.195989,6.190813,,
Place du 150ème - 1213 Onex,Pavillon,24/24,Se trouve sous le Pavillon au milieu de la Place du 150ème,OUI,1116097.25,2496666.68,46.188389,6.100194,,
Place du Marche 14 (1227 Carouge GE),Mairie de Carouge,lu 08h00-12h00 14h00-17h00 / ma 07h30-12h00 14h00-17h00 / me 08h00-17h00 / je 08h00-12h00 14h00-17h30,Derrière le muret à droite en entrant,OUI,1115582.7,2499735.87,46.184255,6.140089,,
Place SIGISMOND 1 (1227 Carouge GE),Cimetière,lu-ve 08h00-12h00 14h00-17h00,Dans le hall des chambres funéraires à gauche,OUI,1115299.62,2500171.71,46.181771,6.145713,,
Point Prod - 41b route des jeunes - 1227 Genève,Building,Lu - Ve 08:30 - 12:30 / 13:30 - 18:00,Batiment Point Prod juste après l'entrée derrière l'accueil à gauche,OUI,1115435.04,2498998.46,46.18278713,6.130534573,,
Promenade de l'Europe 11 - 1203 Genève,MIGROS Charmilles,Lu - Sa 08:00 - 19:00,"Au service client MIGROS (Florissimo), dans le magasin tout au fond du centre commercial",OUI,1118271.04,2498557.13,46.20822862,6.124203601,,
Quai du General-GUISAN 7 (1204 Geneve),Parking du Mont Blanc,24/24,Hall Entrée Molard Caisses Automatiques,-,1117838.07,2500513.63,46.2044108,6.1472116,,
Quai du General-GUISAN 7 (1204 Geneve),Parking du Mont Blanc,24/24,Hall Fusterie,-,1117838.07,2500513.63,46.20444709,6.149394003,,
Quai du Seujet 18 (1201 Geneve),Réception T-Ingenierie 2ème étage,lun-ven 08h30-12h00 / 13h00-18h00,En face de la réception,OUI,1117936.28,2499431.13,46.205435,6.135689,,
Route d'Athenaz 37 (1285 Athenaz (Avusy)),Salle communale d'Athenaz,24/24,"Sous le péristyle, côté terrain de rugby/sculpture",OUI,1112480.52,2489145.48,46.154593,6.00354,,
Route de Certoux 161 (1258 Perly),Tennis Club - Club House,24/24,À l'extérieur du Club House,OUI,1112738.09,2494876.23,46.157905,6.077782,,
Route de Certoux 35 (1258 Perly),Groupe scolaire,8h-22h,Hall d'accès du bâtiment,OUI,1112460.29,2496012.49,46.155564,6.092502,,
Route de Certoux 35 (1258 Perly),Piscine,8h-22h,Piscine,OUI,1112460.29,2496012.49,46.15551,6.09251,,
Route de Chancy 131 - 1213 Onex,Salle communale,24/24,Sur la façade qui se trouve à droite de l'entrée de la salle communale,OUI,1115508.97,2496661.49,46.183097,6.100257,,
Route de Chene 136 (1224 Chene-Bougeries),Mairie de Chêne-Bougeries,"Lu, Me, Je 9:00-12:00 14:00-16:00 / Ma 7:30-18:00 / Ve 9:00-12:00",à droite de l'entrée principale,OUI,1117028.74,2503381.25,46.197772,6.186988,,
Route de Chene 149 (1224 Chene-Bougeries),Ecole de Chêne-Bougeries,"Lu, Ma, Je, Ve 8:30-11:30 13:30-16:30 / Me 8:30-11:30",à droite de la salle de gym,OUI,1117086.42,2503456.57,46.198291,6.187986,,
Route de Chevrens 110,Local pompier,24/24,Façade de gauche du local pompiers,OUI,1126437.84,2507401.03,46.282973,6.237148,,
Route de Collex 205 (1239 Collex),Local pompier,24/24,sur la façade du local pompier / voirie,-,1125381.01,2498724.7,46.27215,6.124783,,
Route de Compois 6 - 1245 Collonge-Bellerive,Pallanterie - Bâtiment administratif,24/24,A droite de l'entrée numéro 6,OUI,1122480.54,2505836.69,46.24715028,6.217662382,,
Route de Cugny 99 (1257 La Croix-de-Rozon),Commanderie de Compesières,24/24,Hall d'entrée de la Commanderie,OUI,1112015.99,2498166.45,46.151927,6.120504,,
Route de Florissant 86 - 1206 Genève,MIGROS Rieu,Lu - Me 08:00 - 19:00 / Je 08:00 - 20:00 / Ve 08:00 - 19:30 / Sa 08:00 - 18:00,En entrant à droite au niveau du service client,OUI,1116425.8,2501614.14,46.1920862,6.164196541,,
Route de Frontenex 68 (1207 Geneve),Caserne des pompiers SIS,24/24,Hall d'entrée,-,1117669.55,2501918.2,46.203271,6.168097,,
Route de Gy 115 (1251 Gy),Immeuble communal,24/24,Dans la cage d'escalier située à côté du tea-room,OUI,1122895.07,2508742.17,46.251285,6.255275,,
Route de Gy 173 (1251 Gy),Immeuble communal,24/24,En bas de l'escalier situé sur la face de l'immeuble côté route de Gy,OUI,1123010.73,2509130.17,46.252304,6.260355,,
Route de Gy 37 (1252 Meinier),Salle communale,24/24,"contre le mur de la salle communale, sous la tente",OUI,1122381.23,2507020.96,46.24652766,6.232793426,,
Route de Jussy 312 (1254 Jussy),Salle des Fêtes de la Mairie,24/24,Mur à gauche de la porte d'entrée,OUI,1121034.65,2509467.18,46.23454,6.26481,,
Route de l'Aéroport 25 - 1215 Genève 15 Aéroport,MIGROS Cointrin Aéroport,Lu - Ve  08:00 - 20:00 Sa - Di 08:00 - 21:00,"Entrée à gauche, au service client",OUI,1120770.63,2497306.03,46.23052073,6.107445336,,
Route de La-Repentance 86 (1252 Meinier),Bâtiment collectif,Lu-Sa 8:00-22:00 / Di 9:00-14:00,Dans le hall d'entrée du bâtiment,OUI,1122526.69,2506993.48,46.24784681,6.232316296,,
Route de La-Repentance 92 (1252 Meinier),Salle de gymnastique,"Lu, Ma, Je, Ve 8:00-16:00 / Me 8:00-12:00",Dans le hall d'entrée du bâtiment,OUI,1122438.88,2507067.25,46.247174,6.233387,,
Route de Lausanne 312A (1293 Bellevue),Sauvetage de Bellevue-Genthod / Buvette de Gitana,24/24,"Contre le mur en béton, vers les tables de ping-pong",-,1123254.32,2500888.86,46.2533628,6.1534428,,
Route de l'Etraz 201 - 1290 Versoix,Centre sportif,24/24,A proximité de l'entrée principale,OUI,1128012.68,2501076.57,46.296091,6.154768,,
Route de Lullier 65 (1254 Jussy),Bâtiment ancienne laiterie,24/24,Mur en retrait de la route à côté porte entrée,OUI,1120523.36,2509048.33,46.23006,6.25967,,
Route de l'Usine-a-Gaz 10 (1219 Aire),Café Nénuphar,lundi-vendredi 9:00-16:00,Grande salle,NON,1118047.31,2497314.59,46.206031,6.108119,,
Route de l'Usine-a-Gaz 16 (1219 Aire),Ecole des Libellules,"Lu, Ma, Je, Ve 8:15-17:00 / Me 8:15-12:15",Couloir salle de gym,NON,1118123.48,2497272.36,46.206745,6.107632,,
Route de Meinier 24 - 1253 Vandoeuvres,Salle polyvalente,24/24,"En contrebas de la route de Meinier, en face de l'école primaire",OUI,1119798.92,2504772.59,46.22288044,6.204414604,,
Route de Meyrin 297 (1217 Meyrin),Salle Antoine-Verchère,24/24,Sur la façade côté entrée parking souterrain,NON,1120595.65,2494575.6,46.228251,6.072002,,
Route de Monniaz 109 (1254 Jussy),Bâtiment,24/24,Sur le mur à l'extérieur du bâtiment,OUI,1121817.93,2512657.62,46.242112,6.306234,,
Route de Peney 2-4 - 1214 Vernier,MIGROS Vernier Arcenter,Lu - Me 08:00 - 19:00 / Je 08:00 - 20:00 / Ve 08:00 - 19:30 / Sa 08:00 - 18:00,Au niveau de Florissimo - rez,OUI,1119250.95,2495420.88,46.21656156,6.083354091,,
Route de Pressy 4 - 1253 Vandoeuvres,Ecole primaire salle rythmique,24/24,-,OUI,1119858.3,2504741.99,46.2234102,6.204005938,,
Route de Saint-Julien 118 (1228 Plan-les-Ouates),Centre Laserdermato,Lundi-vendredi 8h-17h,Couloir entrée du centre,NON,1113985.29,2498137.98,46.169626,6.119748,,
Route de Saint-Julien 176 - 1228 Plan-les-Ouates,MIGROS Plan-Les Ouates,Lu - Me 08:00 - 19:00 / Je 08:00 - 20:00 / Ve 08:00 - 19:30 / Sa 08:00 - 18:00,À côté de l'entrée du magasin Migros - service client,OUI,1113750.54,2497782.93,46.16745256,6.115163239,,
Route de Saint-Julien 5B (1227 Carouge GE),Bâtiment police municipale,lundi-vendredi  08h00-12h00 14h00-17h00,Réception,OUI,1114894.23,2499401.99,46.178059,6.136197,,
Route de Saint-Loup 12 - 1290 Versoix,Salle Communale,24/24,Entrée inférieure au niveau préau inférieur,OUI,1126197.69,2501651.75,46.279971,6.162495,,
Route de Suisse 18 - 1290 Versoix,Mairie,24/24,"A gauche de la Mairie, à côté du panneau d'affichage officiel",OUI,1125739.33,2502228.84,46.27594579,6.170204552,,
Route de Thonon (1223 Cologny),Sauvetage de la Belotte-Bellerive,"Ma, Je, Sa, Di 9:00-12:00",-,-,1 120 776.41,2503557.48,46.231304,6.188763,,
Route de Thonon 55 - 1245 Collonge-Bellerive,MIGROS Collonge-Bellerive - Vésenaz,Lu - Me 08:00 - 19:00 / Je 08:00 - 20:00 / Ve 08:00 - 19:30 / Sa 08:00 - 19:00,Au niveau du service client à droite des caisses,OUI,1121738.61,2504357.84,46.24026805,6.19864208,,
Route des Vandoeuvres 104 - 1253 Vandoeuvres,Mairie,24/24,Sur la gauche du batiment (passer le portail),OUI,1119506.68,2504451.16,46.22020627,6.200309146,,
Route de Vernier 178 (1214 Vernier),Espace de Vie Enfantine Vernier-Village,lundi - vendredi 7h30 - 18h,Bureau administratif - réception,NON,1119418.35,2495829.68,46.218134,6.088655,,
Route de Vernier 200 (1214 Vernier),Ecole de Vernier-Place,"Lu, Ma, Je, Ve 8:15-17:00 / Me 8:15-12:15",Hall d'entrée salle de gym,NON,1119268.38,2495654.95,46.216773,6.086333,,
Route de Vessy 29 (1234 Vessy),Centre sportif de Vessy,24/24,A l'entrée des vestiaires,OUI,1115634.0,2501741.37,46.184983,6.166011,,
Route de Veyrier 57 (1227 Carouge GE),Boulodrome (Centre sportif),7j/7j  08h00-23h00,Hall d'entrée du Boulodrome sur le téléphone,OUI,1115628.48,2500729.67,46.184836,6.15295,,
Route de Vireloup 16 (1239 Collex),Stade Marc-Burdet,24/24,Sur le bâtiment coté terrain de foot,-,1124801.98,2498764.74,46.26689,6.125607,,
Route des Beillans 9 (1254 Jussy),Ecole primaire  et centre sportif de Jussy,24/24,Sur la droite de la porte d'entrée de l'école primaire,OUI,1121214.82,2509193.97,46.23634,6.261404,,
Route des Lolliets 11 (1286 Soral),Ecole primaire et enfantine,24/24,Fixé à droite de la porte d'entrée de l'école,-,1111304.2,2492132.45,46.144573,6.042573,,
Route d'Hermance 110 - 1245 Collonge-Bellerive,Ecole de Collonge,24/24,Sous le préau couvert au niveau du parking voiture,OUI,1123081.72,2504761.79,46.252406,6.203604,,
Route du Bois-des-Freres 30 (1219 Le Lignon),Piscine du Lignon,"Lu 11:00-13:30 16:30-20:30 / Ma, Je, Ve 7:00-13:30 16:30-20:30 / Me 7:00-20:30 / Sa, Di 9:30-20:30",Infirmerie,NON,1117846.67,2496736.44,46.204154,6.10074,,
Route du Creux-de-Boisset 23 (1286 Soral),Mairie de Soral,24/24,Fixé sur le mur extérieur de la mairie à droite de l'escalier menant à la salle communale,-,1111150.35,2492063.76,46.143144,6.041742,,
Route du Creux-du-Loup 44 (1285 Athenaz (Avusy)),Salle communale de Sézegnin,24/24,"Boîtier mural, porte d'entrée principale",OUI,1111374.95,2489431.09,46.144765,6.007623,,
Route du Mandement 349A (1281 Russin),Bâtiment,24/24,mur à droite entrée du salon de coiffure Nouvel'hair,OUI,1116227.67,2490002.75,46.18849849,6.013879957,,
Route du Val-d'Arve 92 (1227 Carouge GE),Bâtiment des services techniques,lu-ve 08h00-12h00 14h00-16h00,A droite en entrant dans le hall de réception,OUI,1115335.87,2500421.77,46.182099,6.149003,,
Route du Vallon 1 - 1224 Chêne-Bougeries,Salle Communale,24/24,Entrée principale - au niveau de l'élévateur pour personnes à mobilité réduite.,OUI,1116858.05,2503401.08,46.19623316,6.187250427,,
Route du Vallon 4 (1224 Chene-Bougeries),Batiment Etat Civil- Rez,"Lu, Je, Ve 8:30-12:00 13:30-16:30 / Ma 7:30-18:00 / Me 13:30-16:30",En face de l'entrée principale,OUI,1116952.65,2503406.95,46.197066,6.187318,,
"Rue Centrale 18, 1247 Anières",Galerie,24/24,"A l'entrée, à côté de la porte sous le couvent",OUI,1125674.9,2506401.17,46.27596098,6.224338645,,
Rue de Carouge 64 - 1205 Genève,MIGROS Plainpalais,Lu - Me 07:30 - 19:00 / Je 07:30 - 20:00 / Ve 07:30 - 19:30 / Sa 07:30 - 18:00,Au service client à gauche en bas des escaliers ou à droite en sortant ascenseur,OUI,1116572.18,2500031.1,46.19316928,6.143662852,,
Rue de Graman 52 - 1241 Puplinge,Ecole - Salle de sport,24/24,"A l'arrière de l'école côté terrain de foot, sous le préau",OUI,1 118 326.17,2506923.11,6.224338645,6.232569,,
Rue de Graman 68 - 1241 Puplinge,Mairie,24/24,A droite de l'entrée de la Mairie,OUI,1118442.29,2506916.81,46.21097864,6.232471853,,
Rue de la Debridee 3 (1227 Carouge GE),Centre social,"Lu, Me, Ve 08:30-11:30 14:00-16:30 / Ma, Je 08:30-11:30",Hall d'entrée,OUI,1115726.35,2499614.4,46.185478,6.138436,,
Rue de La-Tambourine 3 (1227 Carouge GE),Maison de quartier des Grands Hutins,"Lu, Ma, Je 8:00-12:00 13:30-19:00 / Me 8:00-20:00 / Ve 8:00-12:00 13:30-22:00 / Sa 14:00-18:00",Hall d'entrée,OUI,1114781.19,2499613.4,46.177009,6.138767,,
Rue de Lausanne 18-20 - 1201 Genève,MIGROS Les Cygnes,Lu - Me 08:30 - 19:00 / Je - Ve 08:30 - 19:30 / Sa 08:00 - 19:00,Vers les ascenceurs au niveau des caisses de la MIGROS,OUI,1118603.18,2500136.83,46.21145256,6.144597686,,
Rue des Arpenteurs 13 (1217 Meyrin),Ecole des Vergers,24/24,"Entrée de service, en face du terrain de rugby",NON,1120985.46,2494347.39,46.232454,46.232454,,
Rue des Bossons 11 - 1213 Onex,Poste de police municipale - maison de la sécurité,24/24,Sur la façade à droite de l'entrée de la maison de la sécurité,OUI,1115954.87,2496942.88,46.187169,6.103842,,
Rue des Bossons 5 - 1213 Onex,Piscine municipale d'Onex-Parc,24/24,"A l'angle du bâtiment de la piscine,  côté parking",-,1 115 920.40,2496799.82,46.18681252,6.10196101,,
Rue des Bossons 78-80 - 1213 Petit-Lancy,MIGROS Lancy-Onex,Lu - Me 08:00 - 19:00 / Je 08:00 - 20:00 / Ve 08:00 - 19:30 / Sa 08:00 - 18:00,"Au service client Migros, au milieu du centre commercial",OUI,1116091.91,2497428.72,46.18845762,6.110063834,,
Rue des Boudines 2 (1217 Meyrin),Mairie de Meyrin,lu-ve 8h-12h et 13h30-17h,A côté de la réception,OUI,1121049.12,2495312.29,46.232778,6.081589,,
Rue des Caroubiers 7 (1227 Carouge GE),Résidence Gabrielle Sabet / Foyer-handicap,24/24,Dans le sas d'entrée de la Résidence,-,1115970.22,2499304.25,46.187637,6.134372,,
Rue des Charmettes 3 (1227 Carouge GE),Centre sportif des Charmettes,lu-ve 08h00-12h00 13h30-16h30,Hall d'entrée à droite,OUI,1115663.18,2499624.12,46.184919,6.138608,,
Rue des Contamines 26 - 1206 Genève,Athletica - Salle de sport - fitness,Lu -  Je 07:00 - 20:30 / Ve - 07:00 - 20:00 / Sa - 09:00 - 13:00 / Di 10:00 - 14:00,A l'entrée de la salle de sport,OUI,1116815.35,2500940.31,46.19549102,6.15538693,,
Rue des Eaux-Vives 17-19 - 1207 Genève,MIGROS Eaux-Vives,Lu-Me 07:30 -19:00 / Je 07:30 - 20:00 / Ve 07:30 - 19:30 / Sa 08:00 - 18:00,Entreé à droite à côté des fleurs,OUI,1117738.45,2501137.26,46.20382274,6.157742346,,
Rue des Evaux 13 - 1213 Onex,Bâtiment de la Commune d'Onex,"Lu, Ma, Je, Ve 07:30 - 17:30 / Me 07:30-18:00",Intérieur du bâtiment au rez de chaussé,-,1116349.67,2496672.05,46.19066014,6.10020142,,
Rue des Evaux 2 - 1213 Onex,Maison de quartier,Lu - Ve 08:00 - 12:00/14:00 - 22:00,Intérieur du bâtiment au rez de chaussé,-,1116247.93,2496755.68,46.1897683,6.10134883,,
Rue des Lattes 43 (1217 Meyrin),Jardin de l'amitié (local des aînés),24/24,"A l'entrée côté cuisine, àl'opposée de l'entrée principale",NON,1121703.32,2495149.43,46.238493,6.079066,,
"Rue des Savoises 15, 1205 Genève",Maison internationale des association,Lu - Di 7:30 - 23:00,"Entrée principale, vers la réception",OUI,1117448.94,2499654.89,46.20099913,6.138601919,,
Rue du Bois-du-Lan 5 (1217 Meyrin),Multicuirs SA,Lundi - vendredi 7h30 - 18h00,Réception de l'entreprise,NON,1120328.69,2495063.6,46.226325,6.07825,,
"Rue du Couchant 15, 1248 Hermance",EMS,24/24,"Entrée principale, à droite en entrant",OUI,1128471.22,2508076.51,46.30134422,6.245517832,,
Rue du Général-Dufour 3 - 1204 Genève,Banque,Lu - Ve 08:30 - 17:30,Réception - sonner à l'entrée - AED se trouve à la réception à gauche en entrant,OUI,1117602.76,2499847.64,46.20241139,6.141065676,,
Rue du Grand-Bay 13 (1220 Les Avanchets),Ecole Avanchet-Jura,lundi-vendredi 9:00-12:00 14:00-17:00,Infirmerie,NON,1119831.57,2497359.52,46.222047,6.108507,,
Rue du Grand-Bay 21 (1220 Les Avanchets),Bibliothèque des Avanchets,lun 15:00-18:30 / mer 14:00-18:00 / jeu 15:00-19:00 / ven 10:00-12:00 14:00-18:00 / sam 10:00-12:00,Bureau,NON,1119706.25,2497388.63,46.221015,6.108679,,
Rue du Village 1 (1214 Vernier),Ancienne Mairie,lundi-vendredi 9:00-12:00 14:00-17:00,Couloir,NON,1119164.35,2495623.34,46.215822,6.086015,,
Rue du Village 37 (1294 Genthod),Mairie,24/24,Devant l'entrée de la mairie. Dans le passage entre les deux bâtisses.,OUI,1124483.99,2501202.24,46.264498,6.15716,,
Rue du Village 38 (1214 Vernier),Service des écoles et des locations,Lun-Ven 9:00-12:00 14:00-17:00,Couloir rez,NON,1118946.55,2495343.04,46.213809,6.082417,,
Rue du Village 57 (1214 Vernier),Bibliothèque de Vernier,lun 15:00-18:00 / mar 16:00-20:00 / mer 9:00-12:00 15:00-18:00 / jeu 12:00-18:00 / sam 10:00-12:00,A gauche après le sas,NON,1118805.46,2495233.25,46.212554,6.081002,,
Rue du Village 57 (1214 Vernier),Maison Chauvet Lullin,lundi-vendredi 9:00-12:00 14:00-17:00,Hall d'entrée,NON,1118805.46,2495233.25,46.212554,6.081037,,
Rue du Village 6 (1214 Vernier),Ecole des Ranches,"Lu, Ma, Je, Ve 8:15-17:00 / Me 8:15-12:15",Hall d'entrée - salle de gym,NON,1119220.66,2495459.39,46.216368,6.083927,,
Rue du Village 9 (1214 Vernier),Mairie de Vernier,lun-ven 9:00-12:00 14:00-17:00,Hall d'entrée,NON,1119097.27,2495528.75,46.215193,6.084787,,
Rue Francois-DURAFOUR 17 (1220 Les Avanchets),Ecole Avanchet-Salève,"Lu, Ma, Je, Ve 8:15-17:00 / Me 8:15-12:15",Couloir vers les cuisines scolaires,NON,1119572.05,2497520.05,46.219802,6.110469,,
Rue Francois-DUSSAUD 10 (1227 Les Acacias),Centre de la voirie municipale des Vernets,lu-ve 06h30-16h00,-,-,1116837.83,2499133.11,46.195406,6.132,,
Rue Gustave-Revilliod 4 - 1227 Carouge,MIGROS Carouge - Acacias,Lu-Me 07:30 -19:00 / Je 07:30 - 20:00 / Ve 07:30 - 19:30 / Sa 08:00 - 18:00,"Devant entrée principale, au niveau des caisses",OUI,1116370.2,2499557.61,46.19128203,6.137573897,,
Rue Hans-WILSDORF 4 (1227 Les Acacias),Parking du centre sportif des Vernets,24/24,"Au fond du parking, derrière les places handicapées",OUI,1116727.18,2499322.76,46.194698,6.134054,,
Rue Jacques-DALPHIN 24 (1227 Carouge GE),Maison Delafontaine - Etat Civil,lu 09h00-12h00 14h00-16h00 / ma 09h00-12.00 / me 09h00-11h00 12h00-16h00 / je-ve 09h00-12h00,Hall entrée à côté de l'ascenseur,OUI,1115622.49,2499671.98,46.184568,6.139258,,
Rue Pierre-FATIO 17 (1204 Geneve),Direction financière - Ville de Genève,24/24,Code de la porte 2020 - A côté de l'ascenseur,OUI,1117550.72,2500832.3,46.202062,6.15387,,
Rue Sonnex 20 - 1218 Le Grand-Saconnex,MIGROS Gd Saconnex - Le Pommier,"Lu, Ma, Me, Je, Sa 8:00-19:00 / Ve 7:30-19:30",Entrée gauche + gauche au fond du magasin de fleur,OUI,1120570.66,2498279.12,46.22887015,6.120100532,,
Via MONNET 10 (1214 Vernier),Restaurant du Tennis de Vernier,7j/7j Lun-Dim 8:30-01:00,Restaurant,NON,1119477.64,2495347.79,46.218629,6.082299,,
Via MONNET 3 (1214 Vernier),Centre d'entretien - bâtiment de la sécurité,Lundi-vendredi 7h30-11h30 et 13h30-16h00,Extérieur entre les deux bâtiments,NON,1119448.58,2495196.21,46.218446,6.080425,,
